{"type":"FeatureCollection","features":[{"type":"Feature","properties":{"stroke":"#555555","stroke-width":2,"stroke-opacity":1,"fill":"#00ffff","fill-opacity":0.5},"geometry":{"coordinates":[[[7.7752102780807775,53.55804234473874],[12.859453622564615,45.81418250227111],[17.45882888956504,50.158266241433466],[16.33356985442748,53.26920851384406],[15.604088985314092,54.02232463692397],[7.7752102780807775,53.55804234473874]]],"type":"Polygon"}},{"type":"Feature","properties":{"marker-color":"#ff0000","marker-size":"medium","type":"capital","name":"Красно-Каменный"},"geometry":{"coordinates":[13.455996772455762,52.54563818991329],"type":"Point"}},{"type":"Feature","properties":{"Type":"City","Name":"Рудники","marker-color":"#ff0000","marker-size":"medium"},"geometry":{"coordinates":[13.186668884002188,47.71455764782226],"type":"Point"}},{"type":"Feature","properties":{"Type":"City","Name":"Шри-Ансаль"},"geometry":{"coordinates":[14.28003558575682,50.033573778005575],"type":"Point"}},{"type":"Feature","properties":{"Type":"City","Name":"Эмифанк"},"geometry":{"coordinates":[10.768651712438924,51.07866431450759],"type":"Point"}},{"type":"Feature","properties":{"Type":"City","Name":"Чернышевск"},"geometry":{"coordinates":[12.310969672114311,51.372798368215655],"type":"Point"}},{"type":"Feature","properties":{"Type":"City","Name":"Гагариново-Честь"},"geometry":{"coordinates":[9.781436471754944,52.29949232190961],"type":"Point"}},{"type":"Feature","properties":{"type":"City","Name":"Варинлав"},"geometry":{"coordinates":[14.66337655301291,53.50050761671315],"type":"Point"}},{"type":"Feature","properties":{"Type":"City","Name":"Ыхмалыд"},"geometry":{"coordinates":[16.23122113514009,50.82212598230339],"type":"Point"}},{"type":"Feature","properties":{"Type":"city","Name":"Альвера"},"geometry":{"coordinates":[16.497546010080555,52.35651465386516],"type":"Point"}},{"type":"Feature","properties":{"Type":"city","Name":"Чапаевка"},"geometry":{"coordinates":[12.000628327231311,48.23614240515201],"type":"Point"}},{"type":"Feature","properties":{"Type":"city","Name":"Черизо"},"geometry":{"coordinates":[10.347457779657475,53.25507184877114],"type":"Point"}},{"type":"Feature","properties":{"Type":"City","Name":"Смирнов "},"geometry":{"coordinates":[9.835984318942224,53.565286819757745],"type":"Point"}},{"type":"Feature","properties":{"Type":"city","Name":"Гослин"},"geometry":{"coordinates":[13.837235951222311,51.06066496478536],"type":"Point"}},{"type":"Feature","properties":{"Type":"City","Name":"Мафит"},"geometry":{"coordinates":[12.239817155228394,49.06046341536236],"type":"Point"}},{"type":"Feature","properties":{"Type":"City","Name":"Шри-Исламкит"},"geometry":{"coordinates":[15.546684115751646,49.375995392297995],"type":"Point"}}]}
